Lieu,Prix,Details,Lien,Lat,Lon,Adresse_Extraite
Lyon 1er (69001),1 290 €,77 m² - 3 pièces,https://www.vizzit.fr/fr/property/appartement/lyon-1/Ay08jjolu2ksdahn,45.77266,4.82811,Boulevard De La Croix-Rousse
Lyon 3ème (69003),1 371 €,74 m² - 3 pièces,https://www.vizzit.fr/fr/property/appartement/lyon-3/A209s677ncbws308,45.75234,4.85191,Cours Gambetta
Lyon 3ème (69003),569 €,25 m² - 1 pièce,https://www.vizzit.fr/fr/property/appartement/lyon-3/Aqgegtqk6re9eyit,45.75356,4.87684,Rue Feuillat
Lyon 8ème (69008),750 €,31 m² - 2 pièces,https://www.vizzit.fr/fr/property/appartement/lyon-8/Axpjoka22v7tzcmg,45.72941,4.86529,8 Rue Jules Cambon
Lyon 2ème (69002),1 170 €,66 m² - 3 pièces,https://www.vizzit.fr/fr/property/appartement/lyon-2/Aogl2f4encze916i,45.74883,4.82557,
Lyon 5ème (69005),1 005 €,48 m² - 2 pièces,https://www.vizzit.fr/fr/property/appartement/lyon-5/Aohilxgc5tk3zpap,45.75984,4.8263,Place Bellecour
Lyon 1er (69001),790 €,47 m² - 1 pièce,https://www.vizzit.fr/fr/property/appartement/lyon-1/A4sv9d06fewhk0rc,45.76962,4.82814,Rue De L'Annonciade
Lyon 3ème (69003),850 €,57 m² - 2 pièces,https://www.vizzit.fr/fr/property/appartement/lyon-3/Ahnlmvbxa3k23zaq,45.75581,4.84205,Cours Gambetta
Lyon 6ème (69006),1 200 €,60 m² - 2 pièces,https://www.vizzit.fr/fr/property/appartement/lyon-6/A4y4jb2mhrljh5ag,45.76533,4.85261,Rue Vauban
Lyon 2ème (69002),1 305 €,98 m² - 3 pièces,https://www.vizzit.fr/fr/property/appartement/lyon-2/A1wa2b6lhpoiskfq,45.76576,4.83444,
Lyon 9ème (69009),650 €,26 m² - 1 pièce,https://www.vizzit.fr/fr/property/appartement/lyon-9/At4m5p45cwzoitv2,45.77939,4.80164,Rue De Bourgogne
Lyon 4ème (69004),850 €,25 m² - 2 pièces,https://www.vizzit.fr/fr/property/appartement/lyon-4/Aclwwfuf23g8fia6,45.78026,4.82853,Cours D'Herbouville
Lyon 7ème (69007),571 €,23 m² - 1 pièce,https://www.vizzit.fr/fr/property/appartement/lyon-7/Auc9r577czu72bec,45.7532,4.84297,
Lyon 6ème (69006),971 €,60 m² - 3 pièces,https://www.vizzit.fr/fr/property/appartement/lyon-6/A2r2ghc15naxcu6n,45.77407,4.85085,
Lyon 2ème (69002),811 €,24 m² - 1 pièce,https://www.vizzit.fr/fr/property/appartement/lyon-2/A41bkv4q2243we2s,45.74883,4.82557,
Lyon 7ème (69007),945 €,55 m² - 3 pièces,https://www.vizzit.fr/fr/property/appartement/lyon-7/Ahelehutepz1i2jd,45.73335,4.83733,Rue Bancel
Lyon 7ème (69007),945 €,55 m² - 3 pièces,https://www.vizzit.fr/fr/property/appartement/lyon-7/Aea0rysjtbs4pulq,45.72788,4.83974,Rue Bancel
Lyon 6ème (69006),760 €,35 m² - 1 pièce,https://www.vizzit.fr/fr/property/appartement/lyon-6/Anf2lyesv7byipyi,45.76432,4.85621,
Lyon 6ème (69006),760 €,35 m² - 1 pièce,https://www.vizzit.fr/fr/property/appartement/lyon-6/A7932d2198wpl52e,45.76432,4.85621,
Lyon 1er (69001),1 270 €,86 m² - 3 pièces,https://www.vizzit.fr/fr/property/appartement/lyon-1/Ajt34jlbeubb9o0l,45.76874,4.82964,Quai Saint-Vincent
Lyon 8ème (69008),909 €,45 m² - 2 pièces,https://www.vizzit.fr/fr/property/appartement/lyon-8/Ads3cnfbaj5rin09,45.72941,4.86529,
Lyon 3ème (69003),737 €,36 m² - 1 pièce,https://www.vizzit.fr/fr/property/appartement/lyon-3/A9guznycv31k37qd,45.75162,4.87309,Rue Domremy 69003
Lyon 8ème (69008),678 €,32 m² - 1 pièce,https://www.vizzit.fr/fr/property/appartement/lyon-8/Aslarj0mkjkhzelp,45.73276,4.88448,Place Marc Sangnier - Résidence Esplanade -
Lyon 2ème (69002),1 880 €,94 m² - 3 pièces,https://www.vizzit.fr/fr/property/appartement/lyon-2/Am8f60fs2qwp73su,45.75408,4.82856,Rue Jarente Résidence
Lyon 7ème (69007),537 €,23 m² - Studio,https://www.vizzit.fr/fr/property/appartement/lyon-7/Avn2zl8im39baf95,45.74949,4.83852,Rue De Marseille
Lyon 7ème (69007),1 110 €,50 m² - 2 pièces,https://www.vizzit.fr/fr/property/appartement/lyon-7/Aiz77mt9n0og1trz,45.74952,4.84683,Place Saint-Louis
Lyon 1er (69001),532 €,24 m² - Studio,https://www.vizzit.fr/fr/property/appartement/lyon-1/Agtw4vyql7jwhjvx,45.7659,4.83207,Rue De La Platière
Lyon 4ème (69004),846 €,39 m² - 1 pièce,https://www.vizzit.fr/fr/property/appartement/lyon-4/Aj36yc3h5u0agqwo,45.77764,4.8297,
Lyon 4ème (69004),969 €,57 m² - 3 pièces,https://www.vizzit.fr/fr/property/appartement/lyon-4/Ay29m81sh9np34yj,45.77526,4.82888,Rue Villeneuve
Lyon 7ème (69007),583 €,33 m² - 2 pièces,https://www.vizzit.fr/fr/property/appartement/lyon-7/Afabfccullmcbsjr,45.75442,4.84197,
Lyon 2ème (69002),735 €,32 m² - 1 pièce,https://www.vizzit.fr/fr/property/appartement/lyon-2/Alpxuq6e1wkco9zf,45.76136,4.83311,Rue Mercière-
Lyon 3ème (69003),1 207 €,74 m² - 3 pièces,https://www.vizzit.fr/fr/property/appartement/lyon-3/A5e7zxn2xyheughy,45.75045,4.88283,Rue Saint Isidore
Lyon 8ème (69008),1 025 €,21 m² - Studio,https://www.vizzit.fr/fr/property/appartement/lyon-8/A4iuyozdtu7ac63q,45.73515,4.85623,
Lyon 3ème (69003),826 €,38 m² - 2 pièces,https://www.vizzit.fr/fr/property/appartement/lyon-3/Angpb04wvlg052th,45.75605,4.86348,Avenue Lacassagne
Lyon 2ème (69002),1 990 €,80 m² - 4 pièces,https://www.vizzit.fr/fr/property/appartement/lyon-2/Ai8lbw0eyy3mj2h9,45.76052,4.83279,
Lyon 5ème (69005),664 €,34 m² - 1 pièce,https://www.vizzit.fr/fr/property/appartement/lyon-5/Aiutvy3zusgstva2,45.76331,4.82837,
Lyon 6ème (69006),1 100 €,62 m² - 2 pièces,https://www.vizzit.fr/fr/property/appartement/lyon-6/A59yz8esvwiw51td,45.76852,4.84891,Rue De Sèze
Lyon 7ème (69007),886 €,25 m² - 1 pièce,https://www.vizzit.fr/fr/property/appartement/lyon-7/Akty2p8uqns5uetw,45.74293,4.84865,
Lyon 4ème (69004),1 034 €,43 m² - 2 pièces,https://www.vizzit.fr/fr/property/appartement/lyon-4/Anzgj3c00q2fohr0,45.78026,4.82853,Boulevard De La Croix-Rousse
Lyon 4ème (69004),850 €,47 m² - 1 pièce,https://www.vizzit.fr/fr/property/appartement/lyon-4/A9ffwp5w5n7765tc,45.77721,4.83436,Rue D'Ivry
Lyon 3ème (69003),835 €,45 m² - 2 pièces,https://www.vizzit.fr/fr/property/appartement/lyon-3/Atffyeivf006h05e,45.7506,4.88806,Cours Du Docteur Long
Lyon 7ème (69007),397 €,18 m² - Studio,https://www.vizzit.fr/fr/property/appartement/lyon-7/A9n4jy2kdr10kmtw,45.7545,4.84335,Grande Rue De La Guillotiere -
Lyon 3ème (69003),600 €,38 m² - 1 pièce,https://www.vizzit.fr/fr/property/appartement/lyon-3/Ala52vanzrx0yrii,45.75429,4.8831,Route De Genas
Lyon 8ème (69008),555 €,19 m² - Studio,https://www.vizzit.fr/fr/property/appartement/lyon-8/Alhg6le6hqvp3jla,45.7449,4.86165,
Lyon 3ème (69003),820 €,55 m² - 2 pièces,https://www.vizzit.fr/fr/property/appartement/lyon-3/Ald04a4nzl3zhvxc,45.74961,4.87096,
Lyon 7ème (69007),3 000 €,150 m² - 2 pièces,https://www.vizzit.fr/fr/property/maison/lyon-7/Agfnd22i11mqp79p,45.7412643,4.8547049,Avenue Berthelot
Lyon 3ème (69003),1 189 €,39 m² - Studio,https://www.vizzit.fr/fr/property/appartement/lyon-3/A4iimk9ct8bgug9w,45.75363,4.87758,
Lyon 2ème (69002),747 €,33 m² - 1 pièce,https://www.vizzit.fr/fr/property/appartement/lyon-2/Azrpstx651e1s822,45.7477,4.8241,Rue D'Amboise - 69002
Lyon 7ème (69007),550 €,27 m² - Studio,https://www.vizzit.fr/fr/property/appartement/lyon-7/Ay3m96uh2ty1lsxx,45.74466,4.84975,
Lyon 6ème (69006),650 €,34 m² - 2 pièces,https://www.vizzit.fr/fr/property/appartement/lyon-6/Ab5be7c5m1ldpjla,45.77147,4.85307,Rue Sully
Lyon 3ème (69003),614 €,26 m² - Studio,https://www.vizzit.fr/fr/property/appartement/lyon-3/Aivnvwexs02trxdt,45.74324,4.88573,Rue Claude Farrere 69003
Lyon 2ème (69002),814 €,52 m² - 2 pièces,https://www.vizzit.fr/fr/property/appartement/lyon-2/A404bmfsken0279t,45.76321,4.83271,Rue Mercière
Lyon 7ème (69007),950 €,58 m² - 2 pièces,https://www.vizzit.fr/fr/property/appartement/lyon-7/Av0qb81q51pw7vj0,45.74262,4.83861,Rue Lortet - 69007Appartement 3 Pièces
Lyon 3ème (69003),895 €,60 m² - 2 pièces,https://www.vizzit.fr/fr/property/appartement/lyon-3/Afehp4nuwd4r1nrz,45.75637,4.85266,Place Des Martyrs De La Résistance
Lyon 4ème (69004),622 €,30 m² - 1 pièce,https://www.vizzit.fr/fr/property/appartement/lyon-4/Aqe21guw6v3a2psw,45.77834,4.8315,Rue Rosset
Lyon 7ème (69007),605 €,26 m² - 1 pièce,https://www.vizzit.fr/fr/property/appartement/lyon-7/A7afnt3ilj43jp9d,45.74951,4.8561,
Lyon 7ème (69007),819 €,40 m² - 2 pièces,https://www.vizzit.fr/fr/property/appartement/lyon-7/A87kuty2tc4tkfih,45.74641,4.83708,Rue Zimmerman
Lyon 3ème (69003),1 195 €,81 m² - 3 pièces,https://www.vizzit.fr/fr/property/appartement/lyon-3/Af6nxy9bzavpex16,45.75637,4.85266,Place Des Martyrs De La Résistance
Lyon 3ème (69003),1 005 €,54 m² - 2 pièces,https://www.vizzit.fr/fr/property/appartement/lyon-3/Aelnl5d64pi4f7b3,45.7547,4.87644,
Lyon 9ème (69009),992 €,62 m² - 1 balcon,https://www.vizzit.fr/fr/property/appartement/lyon-9/Arsmc2yyd7wx2xhj,45.77602,4.81461,Rue Chazière - Joli 4 Pièces
Lyon 9ème (69009),1 317 €,103 m² - 4 pièces,https://www.vizzit.fr/fr/property/appartement/lyon-9/Act9b0zd7jlw1wbd,45.78835,4.7942,Rue Marcel Cerdan
Lyon 5ème (69005),497 €,24 m² - 1 pièce,https://www.vizzit.fr/fr/property/appartement/lyon-5/Atysme5xku40nc9m,45.76584,4.82815,Rue De L'Angile
Lyon 4ème (69004),1 030 €,52 m² - Studio,https://www.vizzit.fr/fr/property/appartement/lyon-4/Ac5986hokzidnyj4,45.78026,4.82853,Place Commandant Arnaud 69004
Lyon 3ème (69003),910 €,50 m² - 2 pièces,https://www.vizzit.fr/fr/property/appartement/lyon-3/A691jboqeajfv0u6,45.75179,4.87727,
Lyon 9ème (69009),1 000 €,50 m² - 2 pièces,https://www.vizzit.fr/fr/property/appartement/lyon-9/Aorbi0t88iybol3p,45.79329,4.8194,Grande Rue De Saint Clair
Lyon 3ème (69003),610 €,21 m² - Studio,https://www.vizzit.fr/fr/property/appartement/lyon-3/A0xml5y0y63qvl2j,45.74355,4.87739,
Lyon 2ème (69002),850 €,37 m² - 1 pièce,https://www.vizzit.fr/fr/property/appartement/lyon-2/Alw2jxlupfg66brc,45.754723,4.832062,Rue Sala
Lyon 6ème (69006),1 590 €,70 m² - 3 pièces,https://www.vizzit.fr/fr/property/appartement/lyon-6/A70562kvryuukqov,45.76743,4.83681,Rue Molière - 69006
Lyon 3ème (69003),1 489 €,107 m² - 4 pièces,https://www.vizzit.fr/fr/property/appartement/lyon-3/Apww3hi0c265a7yk,45.75823,4.85017,
Lyon 3ème (69003),954 €,68 m² - 2 pièces,https://www.vizzit.fr/fr/property/appartement/lyon-3/A2umxdueuh2dy01e,45.75483,4.84469,
Lyon 4ème (69004),678 €,20 m² - Ascenseur,https://www.vizzit.fr/fr/property/appartement/lyon-4/Auokqlw5bi08l26d,45.7783,4.83484,Rue Belfort -
Lyon 4ème (69004),737 €,36 m² - 2 pièces,https://www.vizzit.fr/fr/property/appartement/lyon-4/Ax0kit0yvke4ihva,45.77452,4.82696,
Lyon 8ème (69008),895 €,68 m² - 3 pièces,https://www.vizzit.fr/fr/property/appartement/lyon-8/Am3nleqe1sddbzhx,45.73251,4.87324,Avenue Paul Santy
Lyon 2ème (69002),819 €,37 m² - Studio,https://www.vizzit.fr/fr/property/appartement/lyon-2/All7c1dcojrepoiw,45.76111,4.83301,
Lyon 2ème (69002),870 €,37 m² - Studio,https://www.vizzit.fr/fr/property/appartement/lyon-2/Ah3dvya8su2tvif9,45.7617892,4.8347123,
Lyon 3ème (69003),890 €,42 m² - 2 pièces,https://www.vizzit.fr/fr/property/appartement/lyon-3/A55mwa2ocgpqkdno,45.75443,4.86417,Avenue Félix Faure
Lyon 5ème (69005),790 €,64 m² - 3 pièces,https://www.vizzit.fr/fr/property/appartement/lyon-5/Auv2krxux4qr23on,45.75944,4.79673,
Lyon 3ème (69003),530 €,30 m² - 2 pièces,https://www.vizzit.fr/fr/property/appartement/lyon-3/Aehh01ahnpbshirt,45.75405,4.85727,
Lyon 4ème (69004),1 290 €,76 m² - 3 pièces,https://www.vizzit.fr/fr/property/appartement/lyon-4/A1xc4i883qciptyl,45.77762,4.81701,Rue Pernon 69004
Lyon 5ème (69005),1 350 €,90 m² - 3 pièces,https://www.vizzit.fr/fr/property/appartement/lyon-5/Autfcju97e9o4ia4,45.76281,4.80175,
Lyon 4ème (69004),725 €,35 m² - Studio,https://www.vizzit.fr/fr/property/appartement/lyon-4/Aftq600fugoq2mr7,45.77927,4.82962,
Lyon 2ème (69002),600 €,25 m² - Studio,https://www.vizzit.fr/fr/property/appartement/lyon-2/Anm8xpnwoh5a4al0,45.75403,4.83068,Rue Auguste Comte
Lyon 9ème (69009),1 080 €,64 m² - 3 pièces,https://www.vizzit.fr/fr/property/appartement/lyon-9/Aj079dcqih17ze37,45.78338,4.81199,Place Gisèle Halimi
Lyon 7ème (69007),772 €,73 m² - 3 pièces,https://www.vizzit.fr/fr/property/appartement/lyon-7/An3vqn1gcnzgluwd,45.74223,4.8497,Impasse Des Chalets A 3 Minutes A
Lyon 2ème (69002),853 €,46 m² - 2 pièces,https://www.vizzit.fr/fr/property/appartement/lyon-2/Am27ny01djskn48g,45.75246,4.82668,Rue D'Enghien Quartier Ainay
Lyon 7ème (69007),550 €,56 m² - 3 pièces,https://www.vizzit.fr/fr/property/appartement/lyon-7/A9fi0i1sy8rf3n2r,45.74211,4.84922,
Lyon 2ème (69002),1 990 €,88 m² - 3 pièces,https://www.vizzit.fr/fr/property/appartement/lyon-2/A5okc8xxay1ka93g,45.75257,4.82804,
Lyon 8ème (69008),706 €,40 m² - 2 pièces,https://www.vizzit.fr/fr/property/appartement/lyon-8/Ay6mqrfji63jichl,45.73298,4.87491,
Lyon 2ème (69002),1 450 €,66 m² - 3 pièces,https://www.vizzit.fr/fr/property/appartement/lyon-2/A5n6sl04z6fixbb8,45.75293,4.82601,
Lyon 9ème (69009),620 €,30 m² - 1 pièce,https://www.vizzit.fr/fr/property/appartement/lyon-9/A79mkxenfx9703sg,45.7825,4.809,
Lyon 2ème (69002),938 €,65 m² - 2 pièces,https://www.vizzit.fr/fr/property/appartement/lyon-2/A8i6hgnaup711ypm,45.7608,4.83264,Rue De L'Ancienne Préfecture
Lyon 3ème (69003),2 000 €,110 m² - 3 pièces,https://www.vizzit.fr/fr/property/appartement/lyon-3/Ay2nfx2qq2t0vjnw,45.76091,4.84012,Quai Augagneur
Lyon 5ème (69005),1 196 €,82 m² - 4 pièces,https://www.vizzit.fr/fr/property/appartement/lyon-5/Ajggwbxqnbkwjrnc,45.74952,4.78023,Rue Pierre Valdo Appartement - Type 4
Lyon 9ème (69009),1 533 €,83 m² - 4 pièces,https://www.vizzit.fr/fr/property/appartement/lyon-9/Ajqtr25i84dkutas,45.78191,4.79491,
Lyon 4ème (69004),815 €,38 m² - 1 pièce,https://www.vizzit.fr/fr/property/appartement/lyon-4/Aw00oflf31td6sg7,45.78097,4.82648,Rue Hénon
Lyon 7ème (69007),1 150 €,50 m² - 2 pièces,https://www.vizzit.fr/fr/property/appartement/lyon-7/A4r8h8ib21qno0yv,45.7347,4.84451,
Lyon 7ème (69007),1 033 €,69 m² - 3 pièces,https://www.vizzit.fr/fr/property/appartement/lyon-7/Az7c8jlwbjms7oqz,45.7471535,4.8440156,
Lyon 7ème (69007),696 €,46 m² - 1 pièce,https://www.vizzit.fr/fr/property/appartement/lyon-7/A7wq9ejk69xjlynv,45.7505861,4.8489303,
Lyon 8ème (69008),590 €,30 m² - 2 pièces,https://www.vizzit.fr/fr/property/appartement/lyon-8/A3e4l51eqdhoroum,45.74053,4.87778,
Lyon 3ème (69003),520 €,29 m² - 2 pièces,https://www.vizzit.fr/fr/property/appartement/lyon-3/Aok72zna3h1yraat,45.75363,4.87758,Rue Feuillat
Lyon 1er (69001),1 476 €,89 m² - 2 pièces,https://www.vizzit.fr/fr/property/appartement/lyon-1/A7v2dxjow0nxdf0h,45.76519,4.83303,
Lyon 6ème (69006),470 €,17 m² - Studio,https://www.vizzit.fr/fr/property/appartement/lyon-6/Aim96irymjfq9efc,45.77036,4.85204,
Lyon 7ème (69007),1 300 €,72 m² - 3 pièces,https://www.vizzit.fr/fr/property/appartement/lyon-7/Auc8na7svruhvf6g,45.73464,4.82902,Place De Stationnement Privée
Lyon 3ème (69003),720 €,41 m² - 2 pièces,https://www.vizzit.fr/fr/property/appartement/lyon-3/A9hu6utnuy3lqc02,45.75208,4.86468,
Lyon 1er (69001),660 €,42 m² - Studio,https://www.vizzit.fr/fr/property/appartement/lyon-1/A319cdwg4oy2mng2,45.76992,4.82971,
Lyon 7ème (69007),660 €,46 m² - 2 pièces,https://www.vizzit.fr/fr/property/appartement/lyon-7/Aaz0q50yz2zqdqp4,45.74496,4.8475,
Lyon 6ème (69006),555 €,24 m² - Studio,https://www.vizzit.fr/fr/property/appartement/lyon-6/A574ix2aw9yaputi,45.76791,4.85107,Rue Tête D'Or
Lyon 1er (69001),590 €,29 m² - Studio,https://www.vizzit.fr/fr/property/appartement/lyon-1/Az95hmtgfimvuhr1,45.76899,4.83492,Place Des Terreaux
Lyon 2ème (69002),468 €,20 m² - 1 pièce,https://www.vizzit.fr/fr/property/appartement/lyon-2/Aspzfgool8orc9p5,45.75188,4.82836,2 Rue Victor Hugo
Lyon 1er (69001),670 €,21 m² - Meublé,https://www.vizzit.fr/fr/property/appartement/lyon-1/Asf162a9y2hftcnn,45.77131,4.83308,
Lyon 6ème (69006),1 460 €,102 m² - 4 pièces,https://www.vizzit.fr/fr/property/appartement/lyon-6/Afu2y45iv9q15it9,45.76374,4.85258,Cours Lafayette - Quartier Part Dieu
Lyon 4ème (69004),606 €,23 m² - 1 pièce,https://www.vizzit.fr/fr/property/appartement/lyon-4/A2b5ocooh8buvx7g,45.77452,4.82696,Boulevard De La Croix-Rousse
Lyon 7ème (69007),1 140 €,70 m² - 2 pièces,https://www.vizzit.fr/fr/property/appartement/lyon-7/A0xmy5hk3tcn68wk,45.75461,4.84007,Place Raspail 69007
Lyon 8ème (69008),790 €,30 m² - 1 pièce,https://www.vizzit.fr/fr/property/appartement/lyon-8/Acprandhztyyu13g,45.73298,4.87491,Place Du Bachut - Location Meublé -
Lyon 1er (69001),620 €,23 m² - Studio,https://www.vizzit.fr/fr/property/appartement/lyon-1/Acczokbmmt9rgg63,45.76791,4.83625,
Lyon 6ème (69006),1 100 €,59 m² - 2 pièces,https://www.vizzit.fr/fr/property/appartement/lyon-6/Ah0e562w852y47yl,45.76528,4.85655,
Lyon 3ème (69003),760 €,35 m² - 1 pièce,https://www.vizzit.fr/fr/property/appartement/lyon-3/Aedshgp5126te2w8,45.74639,4.88609,Avenue Laccassagne A Proximité Immédiate Des Hôpitaux
Lyon 4ème (69004),1 041 €,45 m² - 2 pièces,https://www.vizzit.fr/fr/property/appartement/lyon-4/Aiauequ9r8ztjgjr,45.77917,4.83002,Rue Marie Henriette
Lyon 1er (69001),1 590 €,112 m² - 3 pièces,https://www.vizzit.fr/fr/property/appartement/lyon-1/Asgm1d5cj6jy51o0,45.76915,4.8302,Place Sathonay
Lyon 3ème (69003),805 €,30 m² - 1 pièce,https://www.vizzit.fr/fr/property/appartement/lyon-3/Arj3mflk1iylh2u4,45.75133,4.86886,Rue Du Professeur Paul Sisley
Lyon 7ème (69007),648 €,38 m² - 2 pièces,https://www.vizzit.fr/fr/property/appartement/lyon-7/A730wmhw8gfitpi5,45.74496,4.8475,Place Bellecour
Lyon 5ème (69005),390 €,16 m² - Studio,https://www.vizzit.fr/fr/property/appartement/lyon-5/Aa3qxdzo7ok9a2hh,45.75647,4.81584,5 Rue Saint Alexandre 69005
Lyon 3ème (69003),695 €,28 m² - Studio,https://www.vizzit.fr/fr/property/appartement/lyon-3/Awmbrg10by0ok0b9,45.7547,4.87644,
Lyon 5ème (69005),648 €,23 m² - Studio,https://www.vizzit.fr/fr/property/appartement/lyon-5/A4vj9qo3348d7t5v,45.75363,4.80542,Rue Commandant Charcot - Studio Meublé
Lyon 3ème (69003),2 457 €,127 m² - 5 pièces,https://www.vizzit.fr/fr/property/appartement/lyon-3/Adxwebr2jk2asv9e,45.74739,4.8745,Rue Du Docteur Bonhomme
Lyon 4ème (69004),850 €,35 m² - 2 pièces,https://www.vizzit.fr/fr/property/appartement/lyon-4/A70br1plgven3z5s,45.77774,4.83167,Rue Calas 69004
Lyon 3ème (69003),1 493 €,118 m² - 6 pièces,https://www.vizzit.fr/fr/property/appartement/lyon-3/Avbst5y1m9xj73le,45.75826,4.85539,
Lyon 9ème (69009),1 250 €,67 m² - 3 pièces,https://www.vizzit.fr/fr/property/appartement/lyon-9/Aiz62tlgxvxcsjug,45.76479,4.79641,Rue De Montribloud Nous Vous Présentons Cette
Lyon 1er (69001),750 €,35 m² - Studio,https://www.vizzit.fr/fr/property/appartement/lyon-1/A8x3bduplgp9o3gt,45.76992,4.82971,Place Pradel
Lyon 7ème (69007),415 €,17 m² - Studio,https://www.vizzit.fr/fr/property/appartement/lyon-7/Akf43e2ypqiqtytx,45.74931,4.84538,Rue Grillet -
Lyon 4ème (69004),1 090 €,45 m² - 2 pièces,https://www.vizzit.fr/fr/property/appartement/lyon-4/Ant47zipp4y5mglh,45.77903,4.82356,Rue Du Mail
Lyon 1er (69001),498 €,34 m² - Studio,https://www.vizzit.fr/fr/property/appartement/lyon-1/Aqqh7o3u0mywpkla,45.7684,4.82238,Quai Saint Vincent
Lyon 3ème (69003),1 390 €,78 m² - 3 pièces,https://www.vizzit.fr/fr/property/appartement/lyon-3/Arsa55wppax61qjg,45.75795,4.84186,Rue Chaponnay
Lyon 3ème (69003),1 289 €,53 m² - 3 pièces,https://www.vizzit.fr/fr/property/appartement/lyon-3/Axcw259w84okhmmw,45.75879,4.8678,Cours Lafayette
Lyon 7ème (69007),903 €,61 m² - 3 pièces,https://www.vizzit.fr/fr/property/appartement/lyon-7/A3tm06ftm9c4urmk,45.73299,4.83912,
Lyon 2ème (69002),1 702 €,84 m² - 4 pièces,https://www.vizzit.fr/fr/property/appartement/lyon-2/Aeo12knt9wf3s4py,45.76028,4.83636,Rue Childebert
Lyon 7ème (69007),550 €,17 m² - Studio,https://www.vizzit.fr/fr/property/appartement/lyon-7/A6n4hbzex7rmezpt,45.74031,4.85166,Route De Vienne
Lyon 6ème (69006),2 699 €,104 m² - 3 pièces,https://www.vizzit.fr/fr/property/appartement/lyon-6/Aj2x7m33dmum3o2m,45.77407,4.85085,Avenue De Grande Bretagne
Lyon 6ème (69006),1 140 €,56 m² - 2 pièces,https://www.vizzit.fr/fr/property/appartement/lyon-6/A557rgb7ycs31wtf,45.7682,4.84558,Rue De Sèze - Location Meublé
Lyon 4ème (69004),850 €,27 m² - 2 pièces,https://www.vizzit.fr/fr/property/appartement/lyon-4/Arewhlbacyj4fy20,45.77549,4.83246,Rue Du Mail
Lyon 7ème (69007),1 840 €,87 m² - 4 pièces,https://www.vizzit.fr/fr/property/appartement/lyon-7/A2j4e3ouo5x5hj42,45.73971,4.83953,
Lyon 8ème (69008),996 €,44 m² - 2 pièces,https://www.vizzit.fr/fr/property/appartement/lyon-8/Agri7x6tixrwao25,45.73281,4.88228,Rue Professeur Joseph Nicolas 69008
Lyon 3ème (69003),919 €,54 m² - 2 pièces,https://www.vizzit.fr/fr/property/appartement/lyon-3/Ahk3k4hyfzmt8ha1,45.75295,4.87369,Rue De La Ruche
Lyon 3ème (69003),1 650 €,110 m² - 4 pièces,https://www.vizzit.fr/fr/property/appartement/lyon-3/Abyrcx3t3idvp8zz,45.75495,4.8478,Cours Intérieure Un Wc Indépendant Et Un
Lyon 6ème (69006),573 €,23 m² - 1 pièce,https://www.vizzit.fr/fr/property/appartement/lyon-6/Adjp8uan4igfy9kf,45.76775,4.84569,Rue Notre-Dame
Lyon 6ème (69006),995 €,52 m² - 2 pièces,https://www.vizzit.fr/fr/property/appartement/lyon-6/Adc7a5i6uoufiacb,45.76503,4.85733,
Lyon 3ème (69003),700 €,16 m² - 1 balcon,https://www.vizzit.fr/fr/property/appartement/lyon-3/A6re8f0ie00zy4xg,45.75696,4.85412,Rue Paul Bert -
Lyon 3ème (69003),618 €,23 m² - Studio,https://www.vizzit.fr/fr/property/appartement/lyon-3/Algrs9my39lfjngy,45.76036,4.84848,
Lyon 7ème (69007),710 €,20 m² - Studio,https://www.vizzit.fr/fr/property/appartement/lyon-7/A2lni0vc0g35bosa,45.74496,4.8475,Quai Du Rhône
Lyon 8ème (69008),492 €,20 m² - Studio,https://www.vizzit.fr/fr/property/appartement/lyon-8/Awb03ciz27sandqd,45.73824,4.88604,
Lyon 7ème (69007),730 €,17 m² - Studio,https://www.vizzit.fr/fr/property/appartement/lyon-7/A3yu3d63a7fc9nnr,45.74828,4.84793,Place St Louis
Lyon 8ème (69008),"570 €
-4%",18 m² - Studio,https://www.vizzit.fr/fr/property/appartement/lyon-8/Abiqm83o0zhf4x6j,45.73388,4.86899,
Lyon 1er (69001),870 €,42 m² - 2 pièces,https://www.vizzit.fr/fr/property/appartement/lyon-1/Ao12dncn3dxj9ybb,45.76791,4.83625,Place Colbert
Lyon 9ème (69009),895 €,68 m² - 2 pièces,https://www.vizzit.fr/fr/property/appartement/lyon-9/A7ecik2r103xcovt,45.75208,4.77443,Rue De L'Abbé Papon
Lyon 2ème (69002),1 019 €,62 m² - 3 pièces,https://www.vizzit.fr/fr/property/appartement/lyon-2/Azenaqxsa4twjmtf,45.75877,4.83583,Rue Bellecordiere 69002
Lyon 9ème (69009),690 €,30 m² - 2 pièces,https://www.vizzit.fr/fr/property/appartement/lyon-9/A0ym9mc2axdukyym,45.76935,4.80579,Rue Sergent Michel Berthet
Lyon 7ème (69007),690 €,36 m² - Studio,https://www.vizzit.fr/fr/property/appartement/lyon-7/Apfa8x1rn0vupd70,45.74874,4.85481,
Lyon 1er (69001),2 640 €,135 m² - 5 pièces,https://www.vizzit.fr/fr/property/appartement/lyon-1/Alynx8zyhd2f327w,45.7712,4.8372,Rue Royale
Lyon 3ème (69003),695 €,46 m² - 2 pièces,https://www.vizzit.fr/fr/property/appartement/lyon-3/A2wqc1t8m9km5rq6,45.75186,4.8696,
Lyon 3ème (69003),850 €,33 m² - 1 pièce,https://www.vizzit.fr/fr/property/appartement/lyon-3/Aqe2uocy2jsxe03n,45.76361,4.84973,Cours Lafayette
Lyon 7ème (69007),622 €,26 m² - 1 pièce,https://www.vizzit.fr/fr/property/appartement/lyon-7/Apv4htnbt7p8dlx8,45.74971,4.84664,Place Saint Louis
Lyon 1er (69001),800 €,25 m² - Meublé,https://www.vizzit.fr/fr/property/appartement/lyon-1/Aoiq3v91q3qt69yt,45.76673,4.83745,
Lyon 4ème (69004),1 396 €,72 m² - 3 pièces,https://www.vizzit.fr/fr/property/appartement/lyon-4/Aen7nqu0s5g192rt,45.77356,4.81211,Quai Joseph Gillet
Lyon 8ème (69008),665 €,35 m² - 1 pièce,https://www.vizzit.fr/fr/property/appartement/lyon-8/A1202d2aru0d2b4m,45.73923,4.8786,Rue Gabriel Sarrazin
Lyon 7ème (69007),1 760 €,101 m² - 4 pièces,https://www.vizzit.fr/fr/property/appartement/lyon-7/Aie9gtznvaxbtl2z,45.74643,4.8435,Avenue Jean Jaurès Et La Rue Domer
Lyon 3ème (69003),1 199 €,60 m² - 2 pièces,https://www.vizzit.fr/fr/property/appartement/lyon-3/A3jkugq3w0qcyn7b,45.75365,4.84841,Place Victor Basch
Lyon 1er (69001),650 €,24 m² - Studio,https://www.vizzit.fr/fr/property/appartement/lyon-1/Abzc67u9in968qjb,45.76856,4.82736,
Lyon 7ème (69007),988 €,72 m² - 3 pièces,https://www.vizzit.fr/fr/property/appartement/lyon-7/A1o1hs26ytbnfwp8,45.74053,4.83377,Rue Galland
Lyon 8ème (69008),680 €,40 m² - 2 pièces,https://www.vizzit.fr/fr/property/appartement/lyon-8/Axvsxqh639gxykha,45.73866,4.88109,Rue Pierre Sonnerat 69008
Lyon 9ème (69009),587 €,23 m² - 1 pièce,https://www.vizzit.fr/fr/property/appartement/lyon-9/Alyjukclp26sj6wr,45.77663,4.80562,Rue Chinard
Lyon 6ème (69006),705 €,38 m² - 2 pièces,https://www.vizzit.fr/fr/property/appartement/lyon-6/Aajfkrfsqawuqj3j,45.76784,4.84382,
Lyon 8ème (69008),720 €,39 m² - 1 pièce,https://www.vizzit.fr/fr/property/appartement/lyon-8/A7bdrtfa3vvx6mhc,45.73953,4.86541,Rue Marius Berliet 69008
Lyon 1er (69001),965 €,42 m² - 2 pièces,https://www.vizzit.fr/fr/property/appartement/lyon-1/All5a61st0mx90gw,45.77263,4.8315,
Lyon 6ème (69006),2 000 €,100 m² - 4 pièces,https://www.vizzit.fr/fr/property/appartement/lyon-6/Aof7efgr9x816808,45.76449,4.85319,
Lyon 9ème (69009),1 620 €,100 m² - 4 pièces,https://www.vizzit.fr/fr/property/appartement/lyon-9/A6l3at4m6ybz7d6e,45.76867,4.81247,Quai Pierre Scize
Lyon 5ème (69005),1 300 €,58 m² - 3 pièces,https://www.vizzit.fr/fr/property/appartement/lyon-5/Aeyen0mzdnk8ai1h,45.75326,4.81613,
Lyon 3ème (69003),1 150 €,50 m² - 2 pièces,https://www.vizzit.fr/fr/property/appartement/lyon-3/Abpckwz1kvg8vnw2,45.75482,4.86622,Avenue Lacassagne Superbe T2 Meublé De 50
Lyon 3ème (69003),650 €,20 m² - Studio,https://www.vizzit.fr/fr/property/appartement/lyon-3/As9lynby9s0o15sp,45.7546,4.88054,Route De Genas
Lyon 6ème (69006),1 310 €,58 m² - 3 pièces,https://www.vizzit.fr/fr/property/appartement/lyon-6/Agwlcxtobmslgcj0,45.77272,4.84816,
Lyon 8ème (69008),750 €,26 m² - Studio,https://www.vizzit.fr/fr/property/appartement/lyon-8/A2u1mfp83dzb21kv,45.74688,4.86587,
Lyon 3ème (69003),630 €,22 m² - Studio,https://www.vizzit.fr/fr/property/appartement/lyon-3/Ajkl3mp4a7v9gtzy,45.7556,4.85136,Rue André Philip 69003
Lyon 3ème (69003),1 175 €,57 m² - 2 pièces,https://www.vizzit.fr/fr/property/appartement/lyon-3/Au0vk0umkn8us92q,45.77851,4.82204,
Lyon 3ème (69003),745 €,34 m² - Studio,https://www.vizzit.fr/fr/property/appartement/lyon-3/Atkq2vr5vrlb93g0,45.74315,4.88681,Rue Claude Farrere 69003
Lyon 3ème (69003),975 €,42 m² - 2 pièces,https://www.vizzit.fr/fr/property/appartement/lyon-3/A50q6juza0360imc,45.76365,4.86925,Cours Lafayette
Lyon 8ème (69008),570 €,22 m² - Studio,https://www.vizzit.fr/fr/property/appartement/lyon-8/Aeniipu2dh9r8vam,45.73926,4.86094,
Lyon 2ème (69002),830 €,38 m² - 2 pièces,https://www.vizzit.fr/fr/property/appartement/lyon-2/A63o4rg37jipauke,45.74165,4.82137,Rue Smith
Lyon 7ème (69007),566 €,20 m² - Studio,https://www.vizzit.fr/fr/property/appartement/lyon-7/A0p6s1a3yvyj30vo,45.72654,4.8369,
Lyon 2ème (69002),720 €,22 m² - Studio,https://www.vizzit.fr/fr/property/appartement/lyon-2/Am4aggog5q6xcjas,45.75178,4.83125,Rue Franklin
Lyon 3ème (69003),446 €,16 m² - Studio,https://www.vizzit.fr/fr/property/appartement/lyon-3/A8o2kgktnrsz0w01,,,Rue Vendôme
Lyon 7ème (69007),1 811 €,83 m² - 4 pièces,https://www.vizzit.fr/fr/property/appartement/lyon-7/Ajrt2dv7muu84dxe,45.73695,4.82901,Allée Christine Pascal
Lyon 8ème (69008),800 €,36 m² - 2 pièces,https://www.vizzit.fr/fr/property/appartement/lyon-8/Azps8wz6d0ai9dfk,45.72568,4.87823,Rue Hugues Guerin Bel Appartement T2
Lyon 6ème (69006),850 €,41 m² - 2 pièces,https://www.vizzit.fr/fr/property/appartement/lyon-6/Alnafvbsl7g56hgb,45.76877,4.8518,Rue De Sèze
Lyon 3ème (69003),740 €,38 m² - 2 pièces,https://www.vizzit.fr/fr/property/appartement/lyon-3/Ak2dzc4otzq3iikg,45.7592,4.85232,
Lyon 8ème (69008),902 €,48 m² - 2 pièces,https://www.vizzit.fr/fr/property/appartement/lyon-8/Av2amqasmoo7ltxp,45.73298,4.87491,
Lyon 3ème (69003),1 230 €,105 m² - 5 pièces,https://www.vizzit.fr/fr/property/appartement/lyon-3/Aufghsjsxj23esvs,45.75362,4.87371,Rue Très Calme Réservée Aux Riverains -
Lyon 7ème (69007),590 €,19 m² - Studio,https://www.vizzit.fr/fr/property/appartement/lyon-7/A3a0raa8i2fkelsm,45.74062,4.85466,
Lyon 7ème (69007),1 300 €,49 m² - 2 pièces,https://www.vizzit.fr/fr/property/appartement/lyon-7/Am8zpl76rl8yqufk,45.75191,4.84376,Grande Rue De La Guillotière
Lyon 3ème (69003),400 €,12 m² - Studio,https://www.vizzit.fr/fr/property/appartement/lyon-3/A2rim8g6ts6fgebb,45.7578,4.84142,Rue Chaponnay
Lyon 4ème (69004),900 €,28 m² - 2 pièces,https://www.vizzit.fr/fr/property/appartement/lyon-4/Av18t1t44jzojpsy,45.77463,4.82397,Rue Par Un Couloir Extérieur Sécurisé Par
Lyon 7ème (69007),1 417 €,106 m² - 4 pièces,https://www.vizzit.fr/fr/property/appartement/lyon-7/A5kp79uva2mcgnj3,45.7434,4.83788,Rue Galland
Lyon 3ème (69003),2 350 €,151 m² - 6 pièces,https://www.vizzit.fr/fr/property/appartement/lyon-3/Azqi31yawrr8toj3,45.75332,4.86924,Place Voltaire
Lyon 1er (69001),660 €,20 m² - 2 pièces,https://www.vizzit.fr/fr/property/appartement/lyon-1/Apobjlr9ar5l7xpk,45.76877,4.83529,Rue Terraille
Lyon 2ème (69002),872 €,45 m² - 2 pièces,https://www.vizzit.fr/fr/property/appartement/lyon-2/Ak4b2fj5ke9mxrxq,45.7406,4.82247,Place Jacques Truphemus
Lyon 6ème (69006),851 €,40 m² - 2 pièces,https://www.vizzit.fr/fr/property/appartement/lyon-6/Ag3k92xz598tnot6,45.76119,4.84551,Avenue Maréchal De Saxe Résidence
Lyon 3ème (69003),630 €,31 m² - 2 pièces,https://www.vizzit.fr/fr/property/appartement/lyon-3/A0wgvg0sxemj9s9a,45.74968,4.8835,Rue Cardona
Lyon 4ème (69004),1 280 €,70 m² - 4 pièces,https://www.vizzit.fr/fr/property/appartement/lyon-4/Azndxf0g9lg9pw09,45.77458,4.81241,Avenue De Birmingham Très Clair
Lyon 5ème (69005),1 010 €,55 m² - 2 pièces,https://www.vizzit.fr/fr/property/appartement/lyon-5/Aaf3wla7p37qcn3e,45.76164,4.82607,
Lyon 7ème (69007),825 €,51 m² - 3 pièces,https://www.vizzit.fr/fr/property/appartement/lyon-7/Aszhylm1c8cr83j4,45.75308,4.83988,Rue Pasteur
Lyon 8ème (69008),575 €,21 m² - Studio,https://www.vizzit.fr/fr/property/appartement/lyon-8/Avyqf2si8dcvvjwy,45.73765,4.88602,Rue Laennec 69008
Lyon 7ème (69007),680 €,26 m² - Studio,https://www.vizzit.fr/fr/property/appartement/lyon-7/Anasrw5hpwe0eecy,45.74807,4.84485,
Lyon 8ème (69008),550 €,22 m² - Studio,https://www.vizzit.fr/fr/property/appartement/lyon-8/A4me3iu2swbyrpls,45.74152,4.86157,Rue Marius Berliet
Lyon 1er (69001),749 €,36 m² - Studio,https://www.vizzit.fr/fr/property/appartement/lyon-1/Anomfm7kcag00l2r,45.76843,4.83521,
Lyon 1er (69001),698 €,33 m² - Studio,https://www.vizzit.fr/fr/property/appartement/lyon-1/Aa9a97qxn9975l3r,45.77228,4.82272,Rue Des Chartreux
Lyon 4ème (69004),1 250 €,52 m² - 2 pièces,https://www.vizzit.fr/fr/property/appartement/lyon-4/Apun0ox278xj8lam,45.77632,4.82247,Rue Jacquard
Lyon 8ème (69008),575 €,17 m² - 1 pièce,https://www.vizzit.fr/fr/property/appartement/lyon-8/Aj0kvqfi3azku2o0,45.74829,4.86291,Cours Albert Thomas
Lyon 9ème (69009),720 €,20 m² - Studio,https://www.vizzit.fr/fr/property/appartement/lyon-9/A9zjl45nqsflhwvx,45.7802,4.80093,
Lyon 2ème (69002),1 702 €,84 m² - 4 pièces,https://www.vizzit.fr/fr/property/appartement/lyon-2/An13bbfou9v06wpq,45.76028,4.83636,
Lyon 7ème (69007),884 €,50 m² - 2 pièces,https://www.vizzit.fr/fr/property/appartement/lyon-7/A52guip150j75ynj,45.73339,4.83032,
Lyon 4ème (69004),650 €,22 m² - Studio,https://www.vizzit.fr/fr/property/appartement/lyon-4/Ar65srti9j9es2yu,45.77973,4.8401,
Lyon 1er (69001),1 390 €,71 m² - 3 pièces,https://www.vizzit.fr/fr/property/appartement/lyon-1/Aq708dqzfca73m8w,45.76902,4.82803,
Lyon 3ème (69003),960 €,40 m² - 2 pièces,https://www.vizzit.fr/fr/property/maison/lyon-3/Avak63cr3n9dymp8,45.74682,4.87778,Impasse Privée Du 3
Lyon 9ème (69009),900 €,58 m² - Ascenseur,https://www.vizzit.fr/fr/property/appartement/lyon-9/Av62wziech8ynxn3,45.77769,4.80215,Rue Laure Diebold
Lyon 6ème (69006),561 €,39 m² - 2 pièces,https://www.vizzit.fr/fr/property/appartement/lyon-6/A21we4hoog5j90s1,45.76508,4.86804,
Lyon 9ème (69009),788 €,41 m² - 2 pièces,https://www.vizzit.fr/fr/property/appartement/lyon-9/Aycwbxewq4k49p74,45.80206,4.8282,
Lyon 8ème (69008),585 €,18 m² - Studio,https://www.vizzit.fr/fr/property/appartement/lyon-8/A5ol9yruyjqnfcrg,,,
Lyon 3ème (69003),1 289 €,53 m² - 3 pièces,https://www.vizzit.fr/fr/property/appartement/lyon-3/Asr66hwxqafszb6j,45.75879,4.8678,
Lyon 1er (69001),995 €,73 m² - 3 pièces,https://www.vizzit.fr/fr/property/appartement/lyon-1/Avc60m9bvrq50qwg,45.771892,4.825029,Rue Des Chartreux 69001
Lyon 6ème (69006),1 390 €,69 m² - 3 pièces,https://www.vizzit.fr/fr/property/appartement/lyon-6/A6k0k8nlme4j0kc1,45.76948,4.85163,Cours Vitton - 69006
Lyon 1er (69001),950 €,44 m² - Studio,https://www.vizzit.fr/fr/property/appartement/lyon-1/A64njdc3ue44up66,45.77093,4.82854,
Lyon 8ème (69008),1 050 €,42 m² - 2 pièces,https://www.vizzit.fr/fr/property/appartement/lyon-8/Ak1jnfjz1dw1c3hg,45.7287,4.88464,
Lyon 4ème (69004),944 €,46 m² - 2 pièces,https://www.vizzit.fr/fr/property/appartement/lyon-4/Adl9qyutbe3ahcde,45.77603,4.81339,
Lyon 2ème (69002),1 270 €,49 m² - 2 pièces,https://www.vizzit.fr/fr/property/appartement/lyon-2/Adbxvy67892pcbvr,45.74431,4.8183,
Lyon 7ème (69007),1 200 €,58 m² - 3 pièces,https://www.vizzit.fr/fr/property/appartement/lyon-7/Avs7yk879vkw0rcj,45.7336,4.83629,
Lyon 3ème (69003),570 €,19 m² - Studio,https://www.vizzit.fr/fr/property/appartement/lyon-3/Aau7of5wbwl26srh,45.76036,4.84848,
Lyon 4ème (69004),1 570 €,79 m² - 3 pièces,https://www.vizzit.fr/fr/property/appartement/lyon-4/Aodccgup90yshskt,45.77192,4.81729,Rue Ozanam
Lyon 2ème (69002),660 €,22 m² - Studio,https://www.vizzit.fr/fr/property/appartement/lyon-2/Aplea0zt821lk6em,45.7506,4.83047,Place Carnot
Lyon 9ème (69009),1 140 €,81 m² - 4 pièces,https://www.vizzit.fr/fr/property/appartement/lyon-9/Asxt74w06h8b1u1h,45.78227,4.79512,9 Rue Des Erables
Lyon 7ème (69007),402 €,13 m² - 1 pièce,https://www.vizzit.fr/fr/property/appartement/lyon-7/A8yd2xgne0utgi6l,45.75267,4.84075,Rue De Marseille
Lyon 2ème (69002),1 345 €,65 m² - 2 pièces,https://www.vizzit.fr/fr/property/appartement/lyon-2/At2flvmk3g6tjno2,45.759,4.83129,Rue De La Republique
Lyon 3ème (69003),700 €,49 m² - 2 pièces,https://www.vizzit.fr/fr/property/appartement/lyon-3/Acsn6c2tmhyjm3yv,45.75857,4.84176,
Lyon 3ème (69003),1 300 €,69 m² - 3 pièces,https://www.vizzit.fr/fr/property/appartement/lyon-3/Aexufey5tfdkeixv,45.75747,4.84938,Rue Duguesclin
Lyon 4ème (69004),1 000 €,54 m² - 2 pièces,https://www.vizzit.fr/fr/property/appartement/lyon-4/Ayl382ofcwhu7gqm,45.77462,4.82144,
Lyon 8ème (69008),822 €,48 m² - 2 pièces,https://www.vizzit.fr/fr/property/appartement/lyon-8/A9cqgnih8dxr20ih,45.7327,4.8681,
Lyon 5ème (69005),700 €,68 m² - 2 pièces,https://www.vizzit.fr/fr/property/appartement/lyon-5/As93d1xzq5emyyjh,45.75571,4.81524,
Lyon 3ème (69003),680 €,30 m² - 2 pièces,https://www.vizzit.fr/fr/property/appartement/lyon-3/A12wl3wgze59zf69,45.75594,4.8448,
Lyon 4ème (69004),850 €,31 m² - 2 pièces,https://www.vizzit.fr/fr/property/appartement/lyon-4/Ay6np305zvbv3rm1,45.77808,4.83343,
Lyon 2ème (69002),630 €,25 m² - Studio,https://www.vizzit.fr/fr/property/appartement/lyon-2/Am1thcztuvdsnnqn,45.7609,4.83469,
Lyon 3ème (69003),725 €,23 m² - Studio,https://www.vizzit.fr/fr/property/appartement/lyon-3/Ayeck4i6lc8yhzf1,45.75635,4.84225,Rue Mortier
Lyon 1er (69001),895 €,45 m² - 2 pièces,https://www.vizzit.fr/fr/property/appartement/lyon-1/Alrwisolzp91h4nq,45.76933,4.83553,
Lyon 2ème (69002),1 300 €,53 m² - 3 pièces,https://www.vizzit.fr/fr/property/appartement/lyon-2/Alfs8j726nmfke9n,45.75606,4.82703,Place Bellecour
Lyon 8ème (69008),771 €,41 m² - Studio,https://www.vizzit.fr/fr/property/appartement/lyon-8/Aaaa9gpvm4fq4hew,45.7328,4.85893,Impasse Jouhet 69008
Lyon 6ème (69006),710 €,23 m² - 2 pièces,https://www.vizzit.fr/fr/property/appartement/lyon-6/Az6krymgkp2602kd,45.76591,4.84212,Quai Du Rhône
Lyon 6ème (69006),744 €,42 m² - 2 pièces,https://www.vizzit.fr/fr/property/appartement/lyon-6/A9y6ig1acyxjie89,45.76591,4.86431,Rue De La Boétie
Lyon 3ème (69003),650 €,25 m² - 2 pièces,https://www.vizzit.fr/fr/property/appartement/lyon-3/Aj92q2we6q015md8,45.75803,4.84341,
Lyon 6ème (69006),620 €,16 m² - Studio,https://www.vizzit.fr/fr/property/appartement/lyon-6/Avsjhmmtkuvak0hu,45.77219,4.85187,Rue Très Calme
Lyon 7ème (69007),920 €,40 m² - 2 pièces,https://www.vizzit.fr/fr/property/appartement/lyon-7/A6tadz2gelhzpuuz,45.74864,4.85484,
Lyon 1er (69001),1 200 €,65 m² - 3 pièces,https://www.vizzit.fr/fr/property/appartement/lyon-1/Ak7sd9bssdjuddmj,45.7688,4.82959,
Lyon 1er (69001),2 400 €,170 m² - 5 pièces,https://www.vizzit.fr/fr/property/appartement/lyon-1/A16v2eid3mzv87kt,45.77136,4.83823,
Lyon 3ème (69003),684 €,32 m² - 1 pièce,https://www.vizzit.fr/fr/property/appartement/lyon-3/Aos0p9bynd5it08l,45.76251,4.84381,
Lyon 7ème (69007),1 500 €,75 m² - 3 pièces,https://www.vizzit.fr/fr/property/appartement/lyon-7/A0is4tgpwp61wutn,45.75186,4.84703,
Lyon 7ème (69007),1 150 €,52 m² - Cave,https://www.vizzit.fr/fr/property/appartement/lyon-7/Apkfr0czj4rrwnp6,45.73863,4.84025,Place Jean Jaurès
Lyon 8ème (69008),640 €,17 m² - Studio,https://www.vizzit.fr/fr/property/appartement/lyon-8/A8q2y8pnqu33kwk3,45.74829,4.86289,Cours Albert Thomas
Lyon 3ème (69003),1 180 €,53 m² - 2 pièces,https://www.vizzit.fr/fr/property/appartement/lyon-3/A2q6f7i7wl9skwf2,45.75631,4.86337,Avenue Lacassagne
Lyon 3ème (69003),1 545 €,107 m² - 4 pièces,https://www.vizzit.fr/fr/property/appartement/lyon-3/Aa1n3cxak7nuxz2a,45.75358,4.88013,Impasse Calme
Lyon 3ème (69003),822 €,47 m² - 2 pièces,https://www.vizzit.fr/fr/property/appartement/lyon-3/A6wo3soo5ysg992r,45.74783,4.8835,Rue Ferdinand Buisson
Lyon 3ème (69003),760 €,46 m² - 2 pièces,https://www.vizzit.fr/fr/property/appartement/lyon-3/A168lccikzjavzt6,45.75162,4.86903,
Lyon 7ème (69007),610 €,26 m² - Studio,https://www.vizzit.fr/fr/property/appartement/lyon-7/Abw1b5h2c60ftzon,45.7449,4.84542,Rue Camille Roy
Lyon 4ème (69004),825 €,44 m² - 2 pièces,https://www.vizzit.fr/fr/property/appartement/lyon-4/Amutsci1d5da151j,45.77752,4.83203,Grande Rue De La Croix Rousse
Lyon 7ème (69007),1 790 €,101 m² - 3 pièces,https://www.vizzit.fr/fr/property/appartement/lyon-7/Al937fzigie5hpra,45.7395,4.8358,
Lyon 6ème (69006),844 €,38 m² - 1 pièce,https://www.vizzit.fr/fr/property/appartement/lyon-6/Acj2ugvg3sczcglz,45.76475,4.86802,
Lyon 9ème (69009),1 533 €,83 m² - 4 pièces,https://www.vizzit.fr/fr/property/appartement/lyon-9/A4h38q5ow8ktdg5k,45.78189,4.79492,
Lyon 7ème (69007),680 €,30 m² - 2 pièces,https://www.vizzit.fr/fr/property/appartement/lyon-7/Ahgpqdvj2rg02q39,45.74077,4.85213,Route De Vienne
Lyon 7ème (69007),500 €,22 m² - Studio,https://www.vizzit.fr/fr/property/appartement/lyon-7/Awckjdzhxvmr2ggt,45.75191,4.84376,Rue Sébastien Gryphe
Lyon 5ème (69005),850 €,46 m² - 2 pièces,https://www.vizzit.fr/fr/property/appartement/lyon-5/Avj2ii7n18s2ioe6,45.76703,4.82153,Quai De Saône
Lyon 4ème (69004),690 €,34 m² - Studio,https://www.vizzit.fr/fr/property/appartement/lyon-4/Au49babwyi4s015u,45.77846,4.83599,Rue Calme
Lyon 8ème (69008),745 €,28 m² - 1 pièce,https://www.vizzit.fr/fr/property/appartement/lyon-8/Auvspwgnkh4w3fcz,45.74161,4.86193,
Lyon 5ème (69005),765 €,27 m² - 2 pièces,https://www.vizzit.fr/fr/property/appartement/lyon-5/A6f5ma6fl7f5lrob,45.76273,4.82833,
Lyon 5ème (69005),430 €,11 m² - 1 pièce,https://www.vizzit.fr/fr/property/appartement/lyon-5/Akejhbx81x3jetu0,45.7574,4.79593,Rue Des Aqueducs
Lyon 1er (69001),1 050 €,50 m² - 2 pièces,https://www.vizzit.fr/fr/property/appartement/lyon-1/A161c3bmq9jijwkw,45.76749,4.83433,Rue Pierre Dupont
Lyon 4ème (69004),490 €,18 m² - Studio,https://www.vizzit.fr/fr/property/appartement/lyon-4/Afnm8bmp0q6mn3qf,45.78097,4.82648,Rue Barodet
Lyon 5ème (69005),1 020 €,55 m² - 2 pièces,https://www.vizzit.fr/fr/property/appartement/lyon-5/Ajanooswcceiy12x,45.75479,4.81618,
Lyon 6ème (69006),1 900 €,93 m² - 3 pièces,https://www.vizzit.fr/fr/property/appartement/lyon-6/Agqzpnwzehgk4ytl,45.76667,4.84279,Rue Cuvier
Lyon 7ème (69007),990 €,42 m² - 2 pièces,https://www.vizzit.fr/fr/property/appartement/lyon-7/A036mli6b3wai5zj,45.7504,4.84349,Rue D'Anvers
Lyon 7ème (69007),600 €,25 m² - Studio,https://www.vizzit.fr/fr/property/appartement/lyon-7/A1w7l4l7kirbt0r3,45.7433,4.8374,Place Jean Macé Et De L'Ecole Management
Lyon 8ème (69008),945 €,42 m² - 2 pièces,https://www.vizzit.fr/fr/property/appartement/lyon-8/Aq2l9mh3puicj2gs,45.7412,4.8642,
Lyon 9ème (69009),500 €,21 m² - Studio,https://www.vizzit.fr/fr/property/appartement/lyon-9/A0qj5uxm6a2lwo7v,45.77464,4.79452,
Lyon 6ème (69006),985 €,55 m² - 2 pièces,https://www.vizzit.fr/fr/property/appartement/lyon-6/A3mlowzalmnwvv1h,45.77346,4.84956,Boulevard Des Belges 55 M2
Lyon 8ème (69008),1 090 €,58 m² - 3 pièces,https://www.vizzit.fr/fr/property/appartement/lyon-8/A1wls0bbnvivpnwa,45.74829,4.86289,Avenue Des Frères Lumière Vous Accueillera Pour
Lyon 8ème (69008),620 €,40 m² - 2 pièces,https://www.vizzit.fr/fr/property/appartement/lyon-8/Ahovck29kyezfi4m,45.73221,4.85916,
Lyon 3ème (69003),695 €,18 m² - Studio,https://www.vizzit.fr/fr/property/appartement/lyon-3/Aq0pikv10tg2ik8v,45.75843,4.84803,
Lyon 8ème (69008),730 €,35 m² - Studio,https://www.vizzit.fr/fr/property/appartement/lyon-8/Ak250klt0flh0535,45.74688,4.86587,
Lyon 1er (69001),890 €,40 m² - 2 pièces,https://www.vizzit.fr/fr/property/appartement/lyon-1/Aoklxsomfs70hkos,45.77157,4.82946,Rue Neyret
Lyon 8ème (69008),1 080 €,42 m² - 2 pièces,https://www.vizzit.fr/fr/property/appartement/lyon-8/Ane19eufh2gcbbhv,45.74219,4.88209,Rue De L'Économie
Lyon 7ème (69007),570 €,21 m² - Studio,https://www.vizzit.fr/fr/property/appartement/lyon-7/Aq8l43wwnbwf393w,45.7491,4.84249,Rue De L'Université 69007
Lyon 9ème (69009),1 100 €,46 m² - 2 pièces,https://www.vizzit.fr/fr/property/appartement/lyon-9/A8cxqc86u8iw4ely,45.7894,4.81628,Quai Paul Sédallian
Lyon 7ème (69007),1 450 €,104 m² - 4 pièces,https://www.vizzit.fr/fr/property/appartement/lyon-7/A4lof4rl7ai4ox6v,45.74951,4.8451,Impasse Gord
Lyon 6ème (69006),1 590 €,70 m² - 3 pièces,https://www.vizzit.fr/fr/property/appartement/lyon-6/A7tdsquinywt2j37,45.76521,4.8671,
Lyon 5ème (69005),1 456 €,72 m² - 3 pièces,https://www.vizzit.fr/fr/property/appartement/lyon-5/Agbgdrj07577tzf2,45.75557,4.81729,Place De Stationnement En Sous-Sol Niveau -3
Lyon 2ème (69002),572 €,18 m² - Studio,https://www.vizzit.fr/fr/property/appartement/lyon-2/A0smweq4r7xjjck9,45.74791,4.82807,Rue Du Bélier
Lyon 8ème (69008),560 €,18 m² - Studio,https://www.vizzit.fr/fr/property/appartement/lyon-8/Alz7syh30t9sljya,45.73481,4.86552,
Lyon 3ème (69003),805 €,28 m² - 1 pièce,https://www.vizzit.fr/fr/property/appartement/lyon-3/Araoypsufcnbdv8g,45.75775,4.87342,Rue Saint-Eusèbe
Lyon 8ème (69008),990 €,54 m² - 2 pièces,https://www.vizzit.fr/fr/property/appartement/lyon-8/A90d48vyngvkd05a,45.74315,4.87712,Place Des Frères Lumière
Lyon 6ème (69006),740 €,30 m² - Studio,https://www.vizzit.fr/fr/property/appartement/lyon-6/Aee3q8j057flly0k,45.76824,4.85579,
Lyon 8ème (69008),1 075 €,65 m² - 3 pièces,https://www.vizzit.fr/fr/property/appartement/lyon-8/Alotey5klm1h048u,45.73516,4.8764,Rue Édouard Nieuport
Lyon 9ème (69009),470 €,65 m² - 4 pièces,https://www.vizzit.fr/fr/property/appartement/lyon-9/Akogi1i6zxpl4t0y,45.76677,4.81151,
Lyon 8ème (69008),800 €,47 m² - 2 pièces,https://www.vizzit.fr/fr/property/appartement/lyon-8/Anjteimi5m28gzp8,45.74335,4.8658,Rue Saint Nestor
Lyon 7ème (69007),830 €,25 m² - 2 pièces,https://www.vizzit.fr/fr/property/appartement/lyon-7/Ac8oq843pdo6xixi,45.7465,4.8489,
Lyon 3ème (69003),990 €,38 m² - 2 pièces,https://www.vizzit.fr/fr/property/appartement/lyon-3/Aitfb3jbdf33d52u,45.75669,4.86658,
Lyon 9ème (69009),770 €,24 m² - Studio,https://www.vizzit.fr/fr/property/appartement/lyon-9/Anl1o8mbn3tv3lu8,45.7719,4.80365,Rue Dumas
Lyon 6ème (69006),900 €,40 m² - 2 pièces,https://www.vizzit.fr/fr/property/appartement/lyon-6/Aif3npmmkoz5qwuf,45.76968,4.8458,
Lyon 5ème (69005),620 €,19 m² - Studio,https://www.vizzit.fr/fr/property/appartement/lyon-5/Aqqrl8yzcsh6ldao,45.76095,4.79578,
Lyon 7ème (69007),1 043 €,50 m² - 2 pièces,https://www.vizzit.fr/fr/property/appartement/lyon-7/Ap4qafrr9myg2tcz,45.73976,4.83924,
Lyon 8ème (69008),511 €,27 m² - Studio,https://www.vizzit.fr/fr/property/appartement/lyon-8/A7lgirtd6hi88aro,45.73613,4.87269,
Lyon 6ème (69006),980 €,58 m² - 2 pièces,https://www.vizzit.fr/fr/property/appartement/lyon-6/Amyefhcbhlov5w1d,45.76789,4.85695,
Lyon 2ème (69002),820 €,50 m² - 2 pièces,https://www.vizzit.fr/fr/property/appartement/lyon-2/Ac170z74tp69zbg9,45.74889,4.82554,
Lyon 3ème (69003),615 €,15 m² - Studio,https://www.vizzit.fr/fr/property/appartement/lyon-3/Ayk99mqnfbgkytdc,45.75823,4.85017,Rue Des Rancy
Lyon 1er (69001),1 000 €,56 m² - 2 pièces,https://www.vizzit.fr/fr/property/appartement/lyon-1/A033yl121nphuvp1,45.77263,4.8315,Place Colbert Location A Partir De Mai
Lyon 2ème (69002),755 €,36 m² - 1 pièce,https://www.vizzit.fr/fr/property/appartement/lyon-2/Atfz2tessvbldekc,45.76248,4.83559,Rue De La République Grand Studio En
Lyon 8ème (69008),2 100 €,110 m² - 5 pièces,https://www.vizzit.fr/fr/property/appartement/lyon-8/Adz4jfseif6ngmeq,45.74189,4.88248,
Lyon 4ème (69004),540 €,21 m² - Studio,https://www.vizzit.fr/fr/property/appartement/lyon-4/Aorc3rb8g0leetka,45.77549,4.83246,
Lyon 6ème (69006),600 €,26 m² - Studio,https://www.vizzit.fr/fr/property/appartement/lyon-6/Aviah3yedmx52saf,45.76789,4.85695,
Lyon 7ème (69007),820 €,26 m² - 2 pièces,https://www.vizzit.fr/fr/property/appartement/lyon-7/A3vmchn6lolzqxb9,45.75338,4.84087,Place Carnot 69002
Lyon 9ème (69009),894 €,52 m² - 3 pièces,https://www.vizzit.fr/fr/property/appartement/lyon-9/Axw6adfavxt78mad,45.78338,4.81199,
Lyon 4ème (69004),965 €,27 m² - Studio,https://www.vizzit.fr/fr/property/appartement/lyon-4/Axd4il0d83w9o689,45.77003,4.82839,Rue Constantine Entièrement Rénové
Lyon 1er (69001),965 €,27 m² - 1 pièce,https://www.vizzit.fr/fr/property/appartement/lyon-1/Au44opqk3n0h1z0w,45.76682,4.83135,Rue Constantine Entièrement Rénové
Lyon 3ème (69003),1 244 €,84 m² - 3 pièces,https://www.vizzit.fr/fr/property/appartement/lyon-3/Ao5xzz50iwwkby9t,45.75332,4.86924,Rue Villebois Mareuil
Lyon 9ème (69009),765 €,47 m² - 2 pièces,https://www.vizzit.fr/fr/property/appartement/lyon-9/A1hwml7exq0ljt5e,45.77551,4.80315,Place De Paris
Lyon 3ème (69003),566 €,35 m² - 2 pièces,https://www.vizzit.fr/fr/property/appartement/lyon-3/Ak9tmfn2fetqa2cj,45.74621,4.88502,Rue Jean Marc Bernard - 69003
Lyon 4ème (69004),860 €,32 m² - 2 pièces,https://www.vizzit.fr/fr/property/appartement/lyon-4/Ar6qrx9890lbrbn4,45.77817,4.8323,Rue De La Croix Rousse
Lyon 9ème (69009),805 €,50 m² - 3 pièces,https://www.vizzit.fr/fr/property/appartement/lyon-9/Az9g845h3buxet0c,45.80141,4.82566,Place Maurice Bariod
Lyon 2ème (69002),890 €,32 m² - 2 pièces,https://www.vizzit.fr/fr/property/appartement/lyon-2/Af3pzwd8a3l1gtsp,45.74883,4.82557,Rue Emile Zola
Lyon 6ème (69006),939 €,44 m² - 2 pièces,https://www.vizzit.fr/fr/property/appartement/lyon-6/A3hwn2mflnki8j79,45.77105,4.84117,
Lyon 9ème (69009),920 €,58 m² - 2 pièces,https://www.vizzit.fr/fr/property/appartement/lyon-9/Ahhq8vcdkkkatqy2,45.7699,4.80372,Quai De Saône 58M
Lyon 9ème (69009),1 013 €,65 m² - 3 pièces,https://www.vizzit.fr/fr/property/appartement/lyon-9/Ap0vnt9r1kgbidzn,45.77663,4.80562,Rue De Bourgogne A Proximité Immédiate
Lyon 4ème (69004),1 595 €,74 m² - 3 pièces,https://www.vizzit.fr/fr/property/appartement/lyon-4/Asasjntscou2xxt2,45.78026,4.82853,
Lyon 7ème (69007),470 €,37 m² - 1 pièce,https://www.vizzit.fr/fr/property/appartement/lyon-7/Ar2e3cq1l7ta48dj,45.74816,4.84343,Avenue Jean Jaurès
Lyon 9ème (69009),615 €,23 m² - Studio,https://www.vizzit.fr/fr/property/appartement/lyon-9/Apkouf2pdaxpj5lf,45.78338,4.81199,Rue Chinard - Proximité Gare De Vaise
Lyon 3ème (69003),681 €,31 m² - 2 pièces,https://www.vizzit.fr/fr/property/appartement/lyon-3/Avyuyupm3fadu2wd,45.75726,4.84162,Rue De La Victoire 69003 Anjalys Vous
Lyon 3ème (69003),590 €,75 m² - Studio,https://www.vizzit.fr/fr/property/appartement/lyon-3/Aw1rr8fhw7vd4i07,45.76036,4.84848,
Lyon 8ème (69008),675 €,32 m² - Studio,https://www.vizzit.fr/fr/property/appartement/lyon-8/Ak4sv1gf6z4myads,45.73976,4.8818,Rue Longefer - Studio Meublé
Lyon 4ème (69004),1 390 €,54 m² - 2 pièces,https://www.vizzit.fr/fr/property/appartement/lyon-4/Adoed8bkbvvre9sh,45.77662,4.83869,Cours D'Herbouville
Lyon 4ème (69004),920 €,46 m² - 2 pièces,https://www.vizzit.fr/fr/property/appartement/lyon-4/Aa317ohsdiymladf,45.77865,4.83623,11 Rue Célu
Lyon 8ème (69008),576 €,22 m² - 1 pièce,https://www.vizzit.fr/fr/property/appartement/lyon-8/A3284a4nj5yfm0nd,45.73622,4.85639,Rue Pierre Delore
Lyon 7ème (69007),590 €,67 m² - 3 pièces,https://www.vizzit.fr/fr/property/appartement/lyon-7/Av4uyd4vpqc1ivlz,45.745,4.8466,
Lyon 1er (69001),1 072 €,88 m² - 3 pièces,https://www.vizzit.fr/fr/property/appartement/lyon-1/Ai2axpgz2eodmzoy,45.77136,4.83428,Rue Camille Jordan
Lyon 7ème (69007),510 €,14 m² - Studio,https://www.vizzit.fr/fr/property/appartement/lyon-7/Aopwvmppcajwbl7d,45.75211,4.83659,
Lyon 7ème (69007),505 €,27 m² - Studio,https://www.vizzit.fr/fr/property/appartement/lyon-7/Aueut7700ftc1gex,45.74979,4.83967,Rue Calme
Lyon 3ème (69003),740 €,21 m² - Studio,https://www.vizzit.fr/fr/property/appartement/lyon-3/An68sm2g9xfbcixu,45.76292,4.85247,Boulevard Eugène Deruelle
Lyon 8ème (69008),1 050 €,177 m² - 5 pièces,https://www.vizzit.fr/fr/property/maison/lyon-8/Aqur16l0qv16chds,45.72941,4.86529,Avenue Paul Santy 69008
Lyon 7ème (69007),900 €,45 m² - 2 pièces,https://www.vizzit.fr/fr/property/appartement/lyon-7/Arkmqck8zghw1faj,45.73407,4.83903,
Lyon 6ème (69006),1 341 €,65 m² - 3 pièces,https://www.vizzit.fr/fr/property/appartement/lyon-6/A47xl40yqlgkow7r,45.7665,4.86344,
Lyon 7ème (69007),700 €,32 m² - 2 pièces,https://www.vizzit.fr/fr/property/appartement/lyon-7/Apzyp5xn1lugqmgu,45.75137,4.84712,Place Bellecour
Lyon 9ème (69009),420 €,16 m²,https://www.vizzit.fr/fr/property/appartement/lyon-9/Aj8j267br9aa0d5d,45.79709,4.82616,Rue René Sabran -
Lyon 1er (69001),920 €,34 m² - Studio,https://www.vizzit.fr/fr/property/appartement/lyon-1/Aca7xwzt4c1ti10l,45.76909,4.83298,Rue Des Capucins
Lyon 6ème (69006),830 €,35 m² - 1 pièce,https://www.vizzit.fr/fr/property/appartement/lyon-6/Asgf0tzatp6ed86z,45.76569,4.86474,
Lyon 6ème (69006),1 147 €,80 m² - 3 pièces,https://www.vizzit.fr/fr/property/appartement/lyon-6/Ah00kvuzavaxpp7i,45.76431,4.84278,
Lyon 7ème (69007),1 060 €,56 m² - 2 pièces,https://www.vizzit.fr/fr/property/appartement/lyon-7/Aux552h0xz0kaizg,45.75027,4.85045,Place Saint Louis
Lyon 6ème (69006),750 €,42 m² - 2 pièces,https://www.vizzit.fr/fr/property/appartement/lyon-6/A8zurb95e2pd6gsv,45.76365,4.85476,
Lyon 7ème (69007),625 €,21 m² - Studio,https://www.vizzit.fr/fr/property/appartement/lyon-7/A51rnkvz391cefb8,45.72999,4.82799,
Lyon 3ème (69003),788 €,39 m² - 1 pièce,https://www.vizzit.fr/fr/property/appartement/lyon-3/A7qx81zzpmp8cmd7,45.7446,4.87719,Rue Professeur Rochaix
Lyon 5ème (69005),975 €,58 m² - 2 pièces,https://www.vizzit.fr/fr/property/appartement/lyon-5/Ayjrp14slw6hvabb,45.75651,4.8168,
Lyon 3ème (69003),990 €,38 m² - 2 pièces,https://www.vizzit.fr/fr/property/appartement/lyon-3/Attnpha4af2z03o1,45.75627,4.86259,Place Sainte Anne
Lyon 8ème (69008),1 130 €,52 m² - 2 pièces,https://www.vizzit.fr/fr/property/appartement/lyon-8/Akzmkkoj7qudh740,45.74456,4.86523,Rue Saint-Fulbert
Lyon 3ème (69003),880 €,55 m² - 3 pièces,https://www.vizzit.fr/fr/property/appartement/lyon-3/Asp3ocyazfl4xb5c,45.76006,4.84889,Rue Duguesclin
Lyon 4ème (69004),1 077 €,58 m² - 3 pièces,https://www.vizzit.fr/fr/property/appartement/lyon-4/An8hvn2w0a39s14v,45.78392,4.81482,Rue Chazière 69004
Lyon 1er (69001),980 €,24 m² - Studio,https://www.vizzit.fr/fr/property/appartement/lyon-1/Axj5ssv1nox556de,45.771,4.83303,Montée De La Grande Côte
Lyon 3ème (69003),655 €,23 m² - 1 pièce,https://www.vizzit.fr/fr/property/appartement/lyon-3/At1a3bgtbiv6ppvk,45.75034,4.88532,
Lyon 7ème (69007),1 024 €,41 m² - 2 pièces,https://www.vizzit.fr/fr/property/appartement/lyon-7/Aiq8ft3nusj36jy3,45.74857,4.84285,Rue De L'Université
Lyon 3ème (69003),780 €,20 m² - 1 pièce,https://www.vizzit.fr/fr/property/appartement/lyon-3/A3w0w2xlic2pbt8n,45.75627,4.86259,Place Sainte Anne
Lyon 9ème (69009),866 €,56 m² - 3 pièces,https://www.vizzit.fr/fr/property/appartement/lyon-9/Awpa91cg71xdwoht,45.78514,4.79517,Avenue Du Plateau -
Lyon 2ème (69002),1 990 €,143 m² - 5 pièces,https://www.vizzit.fr/fr/property/appartement/lyon-2/Aq64i701q9bs0jna,45.75926,4.83279,Place Bellecour
Lyon 9ème (69009),2 050 €,101 m² - 4 pièces,https://www.vizzit.fr/fr/property/appartement/lyon-9/Avf0zk7dg8gj3jay,45.78298,4.81024,
Lyon 8ème (69008),895 €,44 m² - 2 pièces,https://www.vizzit.fr/fr/property/appartement/lyon-8/Alt0fssjw7k40vwt,45.7312,4.87114,8 Rue De La Concorde
Lyon 7ème (69007),595 €,30 m² - 1 pièce,https://www.vizzit.fr/fr/property/appartement/lyon-7/A9wx98jydehfgid0,45.74911,4.84522,5 Rue Des Trois Pierres
Lyon 9ème (69009),680 €,25 m² - Studio,https://www.vizzit.fr/fr/property/appartement/lyon-9/Adte9ng1sekgn4xx,45.77528,4.79996,Rue Du 24 Mars 1852
Lyon 6ème (69006),728 €,20 m² - Studio,https://www.vizzit.fr/fr/property/appartement/lyon-6/Aad7bhhf2ffd24ul,45.77067,4.86118,Rue Genève
Lyon 1er (69001),950 €,48 m² - Studio,https://www.vizzit.fr/fr/property/appartement/lyon-1/Aeo8fovkspemlz39,45.76857,4.82468,Passage En Retrait De La Circulation
Lyon 4ème (69004),910 €,46 m² - 2 pièces,https://www.vizzit.fr/fr/property/appartement/lyon-4/Av06hnbc5l33yk05,45.77548,4.82971,
Lyon 5ème (69005),1 150 €,64 m² - 3 pièces,https://www.vizzit.fr/fr/property/appartement/lyon-5/Aihpbyotrwsmwp2f,45.75169,4.77292,Avenue De Ménival
Lyon 6ème (69006),975 €,37 m² - Studio,https://www.vizzit.fr/fr/property/appartement/lyon-6/Auwscmc66npu0pa0,45.76365,4.85476,Rue Principale Très Commerçante Et Résidentielle
Lyon 7ème (69007),1 445 €,76 m² - 3 pièces,https://www.vizzit.fr/fr/property/appartement/lyon-7/Abe0gvmnhrkbjwsg,45.75064,4.84489,
Lyon 8ème (69008),940 €,62 m² - 3 pièces,https://www.vizzit.fr/fr/property/appartement/lyon-8/Afqvd7w7lx3znspb,45.74608,4.86254,Avenue Des Frères Lumière
Lyon 7ème (69007),580 €,17 m² - Studio,https://www.vizzit.fr/fr/property/appartement/lyon-7/Asu1x2dbjp2gyt9l,45.74822,4.83788,Rue De Marseille -
Lyon 7ème (69007),1 200 €,49 m² - 3 pièces,https://www.vizzit.fr/fr/property/appartement/lyon-7/Alujml2d5ez2bg3l,45.72984,4.8276,
Lyon 9ème (69009),545 €,18 m² - Studio,https://www.vizzit.fr/fr/property/appartement/lyon-9/Acxe0jbx46pgp61l,45.76935,4.80579,
Lyon 8ème (69008),540 €,16 m² - 1 pièce,https://www.vizzit.fr/fr/property/appartement/lyon-8/Amjerwbj0wokd1dt,45.73462,4.85249,Rue Général Gouraud
Lyon 4ème (69004),1 700 €,77 m² - 3 pièces,https://www.vizzit.fr/fr/property/appartement/lyon-4/At9o6v5fqdvhnhs8,45.7797,4.8353,Place Commandant Arnaud
Lyon 9ème (69009),678 €,39 m² - 2 pièces,https://www.vizzit.fr/fr/property/appartement/lyon-9/A19be3tw0nybh6m0,45.77976,4.80132,9 Rue De Bourgogne
Lyon 8ème (69008),1 260 €,50 m² - 3 pièces,https://www.vizzit.fr/fr/property/appartement/lyon-8/Ajcoatox9w9bfuzf,45.74542,4.86488,
Lyon 6ème (69006),550 €,25 m² - 1 pièce,https://www.vizzit.fr/fr/property/appartement/lyon-6/Aarm9f8n2hrupcuf,45.7673,4.86433,Rue De La Gaîté
Lyon 9ème (69009),1 327 €,118 m² - 4 pièces,https://www.vizzit.fr/fr/property/appartement/lyon-9/Ap8ytcxy5sacl34u,45.77663,4.80562,Place Valmy
Lyon 6ème (69006),487 €,12 m² - Studio,https://www.vizzit.fr/fr/property/appartement/lyon-6/Arf4t0obz02iut5n,45.76626,4.86096,Rue De La Viabert
Lyon 6ème (69006),2 454 €,122 m² - 4 pièces,https://www.vizzit.fr/fr/property/appartement/lyon-6/A5whv2zq43j57c1i,45.76789,4.85695,
Lyon 1er (69001),600 €,30 m² - 2 pièces,https://www.vizzit.fr/fr/property/appartement/lyon-1/Auaxou15knubezfo,45.77069,4.83553,Rue Burdeau
Lyon 6ème (69006),1 690 €,105 m² - 3 pièces,https://www.vizzit.fr/fr/property/appartement/lyon-6/Atsy9yplih3dww86,45.77407,4.85085,
Lyon 7ème (69007),1 190 €,112 m² - 5 pièces,https://www.vizzit.fr/fr/property/appartement/lyon-7/Aptkzvykz6fb9tes,45.72937,4.83533,Rue Challemel Lacour 69007
Lyon 3ème (69003),2 280 €,101 m² - 5 pièces,https://www.vizzit.fr/fr/property/appartement/lyon-3/Ap8brrjrc8n6igcw,45.7588,4.84577,Avenue De Saxe
Lyon 2ème (69002),1 055 €,77 m² - 3 pièces,https://www.vizzit.fr/fr/property/appartement/lyon-2/Aftkdx5us2bga3z5,45.75217,4.83127,
Lyon 3ème (69003),1 090 €,41 m² - 2 pièces,https://www.vizzit.fr/fr/property/appartement/lyon-3/A9n3u35hd610uv5j,45.74353,4.87852,
Lyon 4ème (69004),638 €,47 m² - 2 pièces,https://www.vizzit.fr/fr/property/appartement/lyon-4/Afgupqyea642tnfg,45.78692,4.81756,Quai De Saone
Lyon 6ème (69006),1 390 €,46 m² - 3 pièces,https://www.vizzit.fr/fr/property/appartement/lyon-6/A3rpqvhf0vh4vxkc,45.76937,4.85845,
Lyon 3ème (69003),850 €,53 m² - 2 pièces,https://www.vizzit.fr/fr/property/appartement/lyon-3/Aa55edwj8db4miw7,45.75471,4.87428,Rue Du Dauphiné
Lyon 3ème (69003),1 715 €,93 m² - 4 pièces,https://www.vizzit.fr/fr/property/appartement/lyon-3/Aqompzuuc92mm2g7,45.75152,4.85885,
Lyon 9ème (69009),1 490 €,87 m² - 4 pièces,https://www.vizzit.fr/fr/property/appartement/lyon-9/A2t3hkmeih75gr0i,45.77044,4.80826,Rue Du Docteur Rafin 69009
Lyon 7ème (69007),880 €,36 m² - 2 pièces,https://www.vizzit.fr/fr/property/appartement/lyon-7/Avqmn351ew3ick2j,45.74915,4.8554,Rue Très Calme Chauffage Électrique Loyer 820
Lyon 8ème (69008),1 036 €,88 m² - 4 pièces,https://www.vizzit.fr/fr/property/appartement/lyon-8/A8kixveh3bn55cz6,45.72887,4.85145,Rue Challemel Lacour 69008
Lyon 4ème (69004),901 €,42 m² - 2 pièces,https://www.vizzit.fr/fr/property/appartement/lyon-4/Ag71pon7kq3wmy8d,45.77903,4.82356,Place Millaud
Lyon 2ème (69002),1 250 €,71 m² - 3 pièces,https://www.vizzit.fr/fr/property/appartement/lyon-2/Axmr6b56aeh3msm7,45.74366,4.82484,
Lyon 7ème (69007),980 €,51 m² - 2 pièces,https://www.vizzit.fr/fr/property/appartement/lyon-7/Ag028vra6f3elijb,45.72788,4.83974,Rue Raulin
Lyon 3ème (69003),1 200 €,50 m² - 2 pièces,https://www.vizzit.fr/fr/property/appartement/lyon-3/A1zk8bh4tj4bs944,45.74692,4.88675,
Lyon 6ème (69006),1 470 €,89 m² - 2 pièces,https://www.vizzit.fr/fr/property/appartement/lyon-6/Aaq2976gmyqwwdwu,45.76822,4.84416,Avenue Maréchal De Saxe - 69006
Lyon 2ème (69002),2 364 €,156 m² - 4 pièces,https://www.vizzit.fr/fr/property/appartement/lyon-2/Adzc9pc68510961v,45.759,4.83129,Rue Antoine De Saint Exupery 69002
Lyon 9ème (69009),842 €,51 m² - 3 pièces,https://www.vizzit.fr/fr/property/appartement/lyon-9/Ag24bzkm9d4t59lb,45.75884,4.81073,Avenue Barthélémy Buyer - T3 D'Environ 52
Lyon 7ème (69007),808 €,25 m² - 1 pièce,https://www.vizzit.fr/fr/property/appartement/lyon-7/Albhi5lriuo4cxuu,45.74057,4.85156,Route De Vienne
Lyon 2ème (69002),1 498 €,80 m² - 3 pièces,https://www.vizzit.fr/fr/property/appartement/lyon-2/A8oorjfl1w8icso2,45.759,4.83129,Place Des Célestins 4 Étage
Lyon 1er (69001),675 €,36 m² - 1 pièce,https://www.vizzit.fr/fr/property/appartement/lyon-1/Anl84fi3pybm7cwo,45.77103,4.83495,Rue Des Tables Claudiennes
Lyon 2ème (69002),1 210 €,55 m² - 2 pièces,https://www.vizzit.fr/fr/property/appartement/lyon-2/A2vs2iws35z25pnb,45.75244,4.82909,Rue Des 4 Chapeaux
Lyon 4ème (69004),4 590 €,125 m² - 4 pièces,https://www.vizzit.fr/fr/property/appartement/lyon-4/A23i703wrdtpfv9d,45.77511,4.82976,
Lyon 3ème (69003),1 257 €,71 m² - 3 pièces,https://www.vizzit.fr/fr/property/appartement/lyon-3/A69rdfdlv9jg94ns,45.75695,4.8423,
Lyon 3ème (69003),861 €,31 m² - 3 pièces,https://www.vizzit.fr/fr/property/appartement/lyon-3/Adfo4u71o8730re5,45.75265,4.86621,Rue Du Dauphiné - Disponible De Suite
Lyon 4ème (69004),1 800 €,77 m² - 3 pièces,https://www.vizzit.fr/fr/property/appartement/lyon-4/Ax8rbt05qjt5ilyu,45.77977,4.83539,Place Commandant Arnaud
Lyon 9ème (69009),2 450 €,128 m² - 4 pièces,https://www.vizzit.fr/fr/property/appartement/lyon-9/A6otvdrwqia2nnno,45.7752,4.80828,
Lyon 2ème (69002),2 560 €,162 m² - 6 pièces,https://www.vizzit.fr/fr/property/appartement/lyon-2/Atotxwaure3igahj,45.75293,4.82601,
Lyon 3ème (69003),1 070 €,68 m² - 3 pièces,https://www.vizzit.fr/fr/property/appartement/lyon-3/Aj8prvz8tye0hw7v,45.75627,4.86259,
Lyon 7ème (69007),750 €,44 m² - 2 pièces,https://www.vizzit.fr/fr/property/appartement/lyon-7/An9sdhvdue13htae,45.73407,4.83903,
Lyon 7ème (69007),1 600 €,75 m² - 3 pièces,https://www.vizzit.fr/fr/property/appartement/lyon-7/Ad1mtimgkh4dl07h,45.75378,4.84444,
Lyon 2ème (69002),890 €,28 m² - Studio,https://www.vizzit.fr/fr/property/appartement/lyon-2/Actgsyzfrco9kaf1,45.75387,4.83232,Rue Sainte-Hélène - 69002
Lyon 7ème (69007),960 €,47 m² - 2 pièces,https://www.vizzit.fr/fr/property/appartement/lyon-7/Axi91tcqalli8lrw,45.74882,4.85467,
Lyon 5ème (69005),980 €,36 m² - 2 pièces,https://www.vizzit.fr/fr/property/appartement/lyon-5/A26z439qbvarculu,45.7588,4.8261,Place Bellecour
Lyon 4ème (69004),800 €,31 m² - 2 pièces,https://www.vizzit.fr/fr/property/appartement/lyon-4/Aulkitm4pl5g2685,45.77442,4.8371,
Lyon 7ème (69007),680 €,20 m² - Studio,https://www.vizzit.fr/fr/property/appartement/lyon-7/Agi2k5h1kg61ebqr,45.73906,4.82945,Rue Des Girondins
Lyon 3ème (69003),970 €,49 m² - 2 pièces,https://www.vizzit.fr/fr/property/appartement/lyon-3/Aq2incvezn8d1dnb,45.75076,4.88615,
Lyon 2ème (69002),746 €,38 m² - 1 pièce,https://www.vizzit.fr/fr/property/appartement/lyon-2/Atqvdbafz02a5a2t,45.75244,4.82909,
Lyon 3ème (69003),666 €,25 m² - Studio,https://www.vizzit.fr/fr/property/appartement/lyon-3/Ax8ujzv23wdnbgs9,45.75927,4.84427,Rue De La Part Dieu
Lyon 2ème (69002),746 €,38 m² - 1 pièce,https://www.vizzit.fr/fr/property/appartement/lyon-2/Angj4bk2ic3gltmq,45.75244,4.82909,Cours Verdun Gensoul
Lyon 3ème (69003),950 €,51 m² - 1 balcon,https://www.vizzit.fr/fr/property/appartement/lyon-3/Awvg49vz30xt6tlx,45.76277,4.86394,Rue Bellecombe 69003
Lyon 5ème (69005),750 €,17 m² - Studio,https://www.vizzit.fr/fr/property/appartement/lyon-5/A5rpqmqx9amxcn6e,45.7588,4.8261,Place Bellecour
Lyon 7ème (69007),730 €,33 m² - Studio,https://www.vizzit.fr/fr/property/appartement/lyon-7/Ayzaelblq7bbw1ja,45.73426,4.84013,
Lyon 7ème (69007),1 124 €,70 m² - 4 pièces,https://www.vizzit.fr/fr/property/appartement/lyon-7/Ac3v2xq9kooyufhv,45.7336,4.83629,Avenue Jean Jaurès 69007
Lyon 3ème (69003),1 490 €,96 m² - 4 pièces,https://www.vizzit.fr/fr/property/appartement/lyon-3/Ahzczkus91g03gwn,45.75721,4.85573,Rue Paul Bert
Lyon 6ème (69006),980 €,38 m² - 2 pièces,https://www.vizzit.fr/fr/property/appartement/lyon-6/Ap18ycjia8olhvo7,45.76703,4.85689,
Lyon 8ème (69008),900 €,55 m² - 2 pièces,https://www.vizzit.fr/fr/property/maison/lyon-8/Adbg1efcte4ub74s,45.73862,4.87643,Place Montplaisir Et Grange Blanche
Lyon 8ème (69008),714 €,45 m² - 3 pièces,https://www.vizzit.fr/fr/property/appartement/lyon-8/A3oztve1ik5bpf0h,45.74695,4.87901,Rue Germain David 69003
Lyon 2ème (69002),1 405 €,62 m² - 3 pièces,https://www.vizzit.fr/fr/property/appartement/lyon-2/A1dnsbi9i2t1w8k8,45.75241,4.8272,
Lyon 8ème (69008),863 €,42 m² - 2 pièces,https://www.vizzit.fr/fr/property/appartement/lyon-8/Abi6v77zm9tx2gc5,45.7357,4.8746,
Lyon 6ème (69006),1 495 €,92 m² - 3 pièces,https://www.vizzit.fr/fr/property/appartement/lyon-6/A39giletuh1isvw5,45.76672,4.84219,Place Maréchal Lyautey
Lyon 1er (69001),1 530 €,94 m² - 4 pièces,https://www.vizzit.fr/fr/property/appartement/lyon-1/Aqlusgjhy1tmi3nz,45.77097,4.81991,
Lyon 2ème (69002),1 575 €,117 m² - 3 pièces,https://www.vizzit.fr/fr/property/appartement/lyon-2/A4y68q85nk3up0sn,45.76401,4.8349,Rue De Brest - Grand T3 Bis
Lyon 7ème (69007),986 €,57 m² - 3 pièces,https://www.vizzit.fr/fr/property/appartement/lyon-7/An00ie7gz6lj8msr,45.73228,4.83498,
Lyon 2ème (69002),1 210 €,55 m² - 2 pièces,https://www.vizzit.fr/fr/property/appartement/lyon-2/Aclmrbbma3p3iwff,45.75244,4.82909,
Lyon 7ème (69007),605 €,21 m² - Studio,https://www.vizzit.fr/fr/property/appartement/lyon-7/Ajmotf1kyl2lz518,45.74514,4.84205,Place J
Lyon 4ème (69004),887 €,48 m² - 2 pièces,https://www.vizzit.fr/fr/property/appartement/lyon-4/A1f3vgdxz6wlx101,45.80614,4.83208,Montée Des Balmes
Lyon 9ème (69009),730 €,49 m² - 2 pièces,https://www.vizzit.fr/fr/property/appartement/lyon-9/Ah1aynwhxmqzcwgr,45.7817,4.79512,
Lyon 3ème (69003),1 254 €,97 m² - 3 pièces,https://www.vizzit.fr/fr/property/appartement/lyon-3/Agzievucs07ylzr7,45.75633,4.86989,Rue Paul Bert -
Lyon 2ème (69002),1 060 €,28 m² - Studio,https://www.vizzit.fr/fr/property/appartement/lyon-2/Av9dmer1pegnygq8,45.75798,4.82916,Place Bellecour
Lyon 4ème (69004),1 500 €,90 m² - 3 pièces,https://www.vizzit.fr/fr/property/appartement/lyon-4/Ah82lq7w2y857rnt,45.77492,4.82787,
Lyon 6ème (69006),890 €,52 m² - 2 pièces,https://www.vizzit.fr/fr/property/appartement/lyon-6/Aebbrqseph1zwf3i,45.76489,4.84984,Place De L'Europe
Lyon 6ème (69006),900 €,33 m² - 1 pièce,https://www.vizzit.fr/fr/property/appartement/lyon-6/Ayhghxtt4gdtybap,45.76972,4.85565,Cours Vitton
Lyon 1er (69001),2 760 €,159 m² - 5 pièces,https://www.vizzit.fr/fr/property/appartement/lyon-1/Ab76ukcnivir5axp,45.76982,4.82395,Rue Pierre Dupont 69001
Lyon 2ème (69002),800 €,35 m² - 1 pièce,https://www.vizzit.fr/fr/property/appartement/lyon-2/A5q66x4v2txz1x8w,45.74431,4.8183,Rue Denuziere 69002
Lyon 1er (69001),778 €,34 m² - Studio,https://www.vizzit.fr/fr/property/appartement/lyon-1/Avavo4222yzaholo,45.76893,4.83636,Rue Du Griffon
Lyon 4ème (69004),2 050 €,70 m² - 3 pièces,https://www.vizzit.fr/fr/property/appartement/lyon-4/Ap0fy017htnw08o8,45.77511,4.82976,
Lyon 1er (69001),892 €,39 m² - 2 pièces,https://www.vizzit.fr/fr/property/appartement/lyon-1/A5alsbbslm0o9dzc,45.76955,4.83585,Rue Du Griffon 69001
Lyon 7ème (69007),540 €,20 m² - Cave,https://www.vizzit.fr/fr/property/appartement/lyon-7/Aqallg0szts9wdj1,45.75423,4.84248,
Lyon 3ème (69003),664 €,36 m² - 1 salle de bain,https://www.vizzit.fr/fr/property/appartement/lyon-3/Anfztzuoyvp9nobh,45.75038,4.87517,Avenue Lacassagne
Lyon 7ème (69007),738 €,38 m² - 2 pièces,https://www.vizzit.fr/fr/property/appartement/lyon-7/Ahuc1plel17oyzym,45.75101,4.85056,
Lyon 9ème (69009),460 €,19 m² - 1 salle de bain,https://www.vizzit.fr/fr/property/appartement/lyon-9/Asazi1q1dedpbbzi,45.77785,4.80499,Rue Chinard 69009
Lyon 1er (69001),1 100 €,46 m² - 2 pièces,https://www.vizzit.fr/fr/property/appartement/lyon-1/A7xzet7tg3d2fc4c,45.76992,4.82971,Quai St Vincent
Lyon 3ème (69003),595 €,15 m² - Studio,https://www.vizzit.fr/fr/property/appartement/lyon-3/Axq75vc22wivjzfq,45.76022,4.85618,Cours Lafayette Nous Vous Proposons Ce Studio
Lyon 2ème (69002),825 €,54 m² - 2 pièces,https://www.vizzit.fr/fr/property/appartement/lyon-2/Ali3q3np2702crtf,45.74464,4.82431,Rue Quivogne
Lyon 3ème (69003),850 €,27 m² - Studio,https://www.vizzit.fr/fr/property/appartement/lyon-3/A4733eqgpltgri0y,45.75332,4.86924,
Lyon 7ème (69007),779 €,24 m² - 2 pièces,https://www.vizzit.fr/fr/property/appartement/lyon-7/Afpuy3c5yd5f74q0,45.73335,4.83733,Rue Sébastien Gryphe En Rez-De-Chaussée Sur Cour
Lyon 9ème (69009),660 €,28 m² - Meublé,https://www.vizzit.fr/fr/property/appartement/lyon-9/Axwqqdeheorzot15,45.77425,4.80249,
Lyon 7ème (69007),595 €,25 m² - Studio,https://www.vizzit.fr/fr/property/appartement/lyon-7/A6cg3wiivdtrosn7,45.73335,4.83733,Rue Du Capitaine Robert Cluzan 69007
Lyon 3ème (69003),1 100 €,44 m² - 2 pièces,https://www.vizzit.fr/fr/property/appartement/lyon-3/Ab8rgucul4iad01w,45.7588,4.86452,
Lyon 6ème (69006),680 €,24 m² - 1 pièce,https://www.vizzit.fr/fr/property/appartement/lyon-6/Am2joo1p2ijcqkov,45.76919,4.8562,Rue Professeur Weil
Lyon 3ème (69003),615 €,35 m² - 1 pièce,https://www.vizzit.fr/fr/property/appartement/lyon-3/A4rwfuhtb09ets0k,45.74978,4.86446,
Lyon 2ème (69002),1 804 €,65 m² - 3 pièces,https://www.vizzit.fr/fr/property/appartement/lyon-2/A07g2ig5j08d5pqp,45.76442,4.83312,Place Saint-Nizier
Lyon 2ème (69002),630 €,33 m² - 2 pièces,https://www.vizzit.fr/fr/property/appartement/lyon-2/A6i6qwz6ujeo8k4l,45.74683,4.8246,Cours Charlemagne
Lyon 6ème (69006),1 040 €,45 m² - 2 pièces,https://www.vizzit.fr/fr/property/appartement/lyon-6/Ap3blbtjxvwxe14r,45.76533,4.85261,
